[
    {
        "codigo": "00000",
        "departamento_codigo": "00",
        "nombre": "No definido",
        "latitud": 0,
        "longitud": 0,
        "spiga_id": null,
        "departamento": {
            "codigo": "00",
            "nombre": "No definido",
            "latitud": 0,
            "longitud": 0
        }
    },
    {
        "codigo": "05001",
        "departamento_codigo": "05",
        "nombre": "MEDELLÍN",
        "latitud": 6.257590259,
        "longitud": -75.611031065,
        "spiga_id": "70",
        "departamento": {
            "codigo": "05",
            "nombre": "ANTIOQUIA",
            "latitud": 6.702032125,
            "longitud": -75.504557037
        }
    },
    {
        "codigo": "05002",
        "departamento_codigo": "05",
        "nombre": "ABEJORRAL",
        "latitud": 5.803728154,
        "longitud": -75.438473525,
        "spiga_id": "2",
        "departamento": {
            "codigo": "05",
            "nombre": "ANTIOQUIA",
            "latitud": 6.702032125,
            "longitud": -75.504557037
        }
    },
    {
        "codigo": "05004",
        "departamento_codigo": "05",
        "nombre": "ABRIAQUÍ",
        "latitud": 6.6275693780000005,
        "longitud": -76.08597756099999,
        "spiga_id": "3",
        "departamento": {
            "codigo": "05",
            "nombre": "ANTIOQUIA",
            "latitud": 6.702032125,
            "longitud": -75.504557037
        }
    },
    {
        "codigo": "05021",
        "departamento_codigo": "05",
        "nombre": "ALEJANDRÍA",
        "latitud": 6.365534125,
        "longitud": -75.090597022,
        "spiga_id": "4",
        "departamento": {
            "codigo": "05",
            "nombre": "ANTIOQUIA",
            "latitud": 6.702032125,
            "longitud": -75.504557037
        }
    },
    {
        "codigo": "05030",
        "departamento_codigo": "05",
        "nombre": "AMAGÁ",
        "latitud": 6.032921994,
        "longitud": -75.708003098,
        "spiga_id": "5",
        "departamento": {
            "codigo": "05",
            "nombre": "ANTIOQUIA",
            "latitud": 6.702032125,
            "longitud": -75.504557037
        }
    },
    {
        "codigo": "05031",
        "departamento_codigo": "05",
        "nombre": "AMALFI",
        "latitud": 6.977788843,
        "longitud": -74.981239298,
        "spiga_id": "6",
        "departamento": {
            "codigo": "05",
            "nombre": "ANTIOQUIA",
            "latitud": 6.702032125,
            "longitud": -75.504557037
        }
    },
    {
        "codigo": "05034",
        "departamento_codigo": "05",
        "nombre": "ANDES",
        "latitud": 5.6049932479999995,
        "longitud": -75.941283908,
        "spiga_id": "7",
        "departamento": {
            "codigo": "05",
            "nombre": "ANTIOQUIA",
            "latitud": 6.702032125,
            "longitud": -75.504557037
        }
    },
    {
        "codigo": "05036",
        "departamento_codigo": "05",
        "nombre": "ANGELÓPOLIS",
        "latitud": 6.121430303,
        "longitud": -75.715949663,
        "spiga_id": "8",
        "departamento": {
            "codigo": "05",
            "nombre": "ANTIOQUIA",
            "latitud": 6.702032125,
            "longitud": -75.504557037
        }
    },
    {
        "codigo": "05038",
        "departamento_codigo": "05",
        "nombre": "ANGOSTURA",
        "latitud": 6.861498764,
        "longitud": -75.358315997,
        "spiga_id": "9",
        "departamento": {
            "codigo": "05",
            "nombre": "ANTIOQUIA",
            "latitud": 6.702032125,
            "longitud": -75.504557037
        }
    },
    {
        "codigo": "05040",
        "departamento_codigo": "05",
        "nombre": "ANORÍ",
        "latitud": 7.193110778,
        "longitud": -75.108489539,
        "spiga_id": "10",
        "departamento": {
            "codigo": "05",
            "nombre": "ANTIOQUIA",
            "latitud": 6.702032125,
            "longitud": -75.504557037
        }
    },
    {
        "codigo": "05042",
        "departamento_codigo": "05",
        "nombre": "SANTA FÉ DE ANTIOQUIA",
        "latitud": 6.535711576,
        "longitud": -75.904266579,
        "spiga_id": "11",
        "departamento": {
            "codigo": "05",
            "nombre": "ANTIOQUIA",
            "latitud": 6.702032125,
            "longitud": -75.504557037
        }
    },
    {
        "codigo": "05044",
        "departamento_codigo": "05",
        "nombre": "ANZÁ",
        "latitud": 6.293546613,
        "longitud": -75.917369269,
        "spiga_id": "12",
        "departamento": {
            "codigo": "05",
            "nombre": "ANTIOQUIA",
            "latitud": 6.702032125,
            "longitud": -75.504557037
        }
    },
    {
        "codigo": "05045",
        "departamento_codigo": "05",
        "nombre": "APARTADÓ",
        "latitud": 7.8604781500000005,
        "longitud": -76.582362643,
        "spiga_id": "13",
        "departamento": {
            "codigo": "05",
            "nombre": "ANTIOQUIA",
            "latitud": 6.702032125,
            "longitud": -75.504557037
        }
    },
    {
        "codigo": "05051",
        "departamento_codigo": "05",
        "nombre": "ARBOLETES",
        "latitud": 8.611395262,
        "longitud": -76.414783173,
        "spiga_id": "14",
        "departamento": {
            "codigo": "05",
            "nombre": "ANTIOQUIA",
            "latitud": 6.702032125,
            "longitud": -75.504557037
        }
    },
    {
        "codigo": "05055",
        "departamento_codigo": "05",
        "nombre": "ARGELIA",
        "latitud": 5.708114524,
        "longitud": -75.094697954,
        "spiga_id": "5",
        "departamento": {
            "codigo": "05",
            "nombre": "ANTIOQUIA",
            "latitud": 6.702032125,
            "longitud": -75.504557037
        }
    },
    {
        "codigo": "05059",
        "departamento_codigo": "05",
        "nombre": "ARMENIA",
        "latitud": 6.163683758,
        "longitud": -75.809955281,
        "spiga_id": "2",
        "departamento": {
            "codigo": "05",
            "nombre": "ANTIOQUIA",
            "latitud": 6.702032125,
            "longitud": -75.504557037
        }
    },
    {
        "codigo": "05079",
        "departamento_codigo": "05",
        "nombre": "BARBOSA",
        "latitud": 6.443417935,
        "longitud": -75.329240854,
        "spiga_id": "5",
        "departamento": {
            "codigo": "05",
            "nombre": "ANTIOQUIA",
            "latitud": 6.702032125,
            "longitud": -75.504557037
        }
    },
    {
        "codigo": "05086",
        "departamento_codigo": "05",
        "nombre": "BELMIRA",
        "latitud": 6.665853953,
        "longitud": -75.68621659,
        "spiga_id": "19",
        "departamento": {
            "codigo": "05",
            "nombre": "ANTIOQUIA",
            "latitud": 6.702032125,
            "longitud": -75.504557037
        }
    },
    {
        "codigo": "05088",
        "departamento_codigo": "05",
        "nombre": "BELLO",
        "latitud": 6.358841086,
        "longitud": -75.589735878,
        "spiga_id": "18",
        "departamento": {
            "codigo": "05",
            "nombre": "ANTIOQUIA",
            "latitud": 6.702032125,
            "longitud": -75.504557037
        }
    },
    {
        "codigo": "05091",
        "departamento_codigo": "05",
        "nombre": "BETANIA",
        "latitud": 5.727081285,
        "longitud": -75.986891074,
        "spiga_id": "20",
        "departamento": {
            "codigo": "05",
            "nombre": "ANTIOQUIA",
            "latitud": 6.702032125,
            "longitud": -75.504557037
        }
    },
    {
        "codigo": "05093",
        "departamento_codigo": "05",
        "nombre": "BETULIA",
        "latitud": 6.185783612,
        "longitud": -75.956492463,
        "spiga_id": "8",
        "departamento": {
            "codigo": "05",
            "nombre": "ANTIOQUIA",
            "latitud": 6.702032125,
            "longitud": -75.504557037
        }
    },
    {
        "codigo": "05101",
        "departamento_codigo": "05",
        "nombre": "CIUDAD BOLÍVAR",
        "latitud": 5.8409956659999995,
        "longitud": -76.010652526,
        "spiga_id": "22",
        "departamento": {
            "codigo": "05",
            "nombre": "ANTIOQUIA",
            "latitud": 6.702032125,
            "longitud": -75.504557037
        }
    },
    {
        "codigo": "05107",
        "departamento_codigo": "05",
        "nombre": "BRICEÑO",
        "latitud": 7.111788462,
        "longitud": -75.562234738,
        "spiga_id": "10",
        "departamento": {
            "codigo": "05",
            "nombre": "ANTIOQUIA",
            "latitud": 6.702032125,
            "longitud": -75.504557037
        }
    },
    {
        "codigo": "05113",
        "departamento_codigo": "05",
        "nombre": "BURITICÁ",
        "latitud": 6.80906489,
        "longitud": -75.912065947,
        "spiga_id": "24",
        "departamento": {
            "codigo": "05",
            "nombre": "ANTIOQUIA",
            "latitud": 6.702032125,
            "longitud": -75.504557037
        }
    },
    {
        "codigo": "05120",
        "departamento_codigo": "05",
        "nombre": "CÁCERES",
        "latitud": 7.665155105,
        "longitud": -75.223697441,
        "spiga_id": "25",
        "departamento": {
            "codigo": "05",
            "nombre": "ANTIOQUIA",
            "latitud": 6.702032125,
            "longitud": -75.504557037
        }
    },
    {
        "codigo": "05125",
        "departamento_codigo": "05",
        "nombre": "CAICEDO",
        "latitud": 6.423463639,
        "longitud": -75.99351498,
        "spiga_id": "26",
        "departamento": {
            "codigo": "05",
            "nombre": "ANTIOQUIA",
            "latitud": 6.702032125,
            "longitud": -75.504557037
        }
    },
    {
        "codigo": "05129",
        "departamento_codigo": "05",
        "nombre": "CALDAS",
        "latitud": 6.054446841,
        "longitud": -75.626426743,
        "spiga_id": "13",
        "departamento": {
            "codigo": "05",
            "nombre": "ANTIOQUIA",
            "latitud": 6.702032125,
            "longitud": -75.504557037
        }
    },
    {
        "codigo": "05134",
        "departamento_codigo": "05",
        "nombre": "CAMPAMENTO",
        "latitud": 7.036017478,
        "longitud": -75.287661778,
        "spiga_id": "28",
        "departamento": {
            "codigo": "05",
            "nombre": "ANTIOQUIA",
            "latitud": 6.702032125,
            "longitud": -75.504557037
        }
    },
    {
        "codigo": "05138",
        "departamento_codigo": "05",
        "nombre": "CAÑASGORDAS",
        "latitud": 6.814950023,
        "longitud": -76.02689632,
        "spiga_id": "29",
        "departamento": {
            "codigo": "05",
            "nombre": "ANTIOQUIA",
            "latitud": 6.702032125,
            "longitud": -75.504557037
        }
    },
    {
        "codigo": "05142",
        "departamento_codigo": "05",
        "nombre": "CARACOLÍ",
        "latitud": 6.33797388,
        "longitud": -74.733548173,
        "spiga_id": "30",
        "departamento": {
            "codigo": "05",
            "nombre": "ANTIOQUIA",
            "latitud": 6.702032125,
            "longitud": -75.504557037
        }
    },
    {
        "codigo": "05145",
        "departamento_codigo": "05",
        "nombre": "CARAMANTA",
        "latitud": 5.555275296,
        "longitud": -75.630820964,
        "spiga_id": "31",
        "departamento": {
            "codigo": "05",
            "nombre": "ANTIOQUIA",
            "latitud": 6.702032125,
            "longitud": -75.504557037
        }
    },
    {
        "codigo": "05147",
        "departamento_codigo": "05",
        "nombre": "CAREPA",
        "latitud": 7.757967437,
        "longitud": -76.643746573,
        "spiga_id": "32",
        "departamento": {
            "codigo": "05",
            "nombre": "ANTIOQUIA",
            "latitud": 6.702032125,
            "longitud": -75.504557037
        }
    },
    {
        "codigo": "05148",
        "departamento_codigo": "05",
        "nombre": "EL CARMEN DE VIBORAL",
        "latitud": 5.978078841,
        "longitud": -75.263536102,
        "spiga_id": "33",
        "departamento": {
            "codigo": "05",
            "nombre": "ANTIOQUIA",
            "latitud": 6.702032125,
            "longitud": -75.504557037
        }
    },
    {
        "codigo": "05150",
        "departamento_codigo": "05",
        "nombre": "CAROLINA",
        "latitud": 6.754821442,
        "longitud": -75.305906539,
        "spiga_id": "34",
        "departamento": {
            "codigo": "05",
            "nombre": "ANTIOQUIA",
            "latitud": 6.702032125,
            "longitud": -75.504557037
        }
    },
    {
        "codigo": "05154",
        "departamento_codigo": "05",
        "nombre": "CAUCASIA",
        "latitud": 7.867941792,
        "longitud": -75.035018239,
        "spiga_id": "35",
        "departamento": {
            "codigo": "05",
            "nombre": "ANTIOQUIA",
            "latitud": 6.702032125,
            "longitud": -75.504557037
        }
    },
    {
        "codigo": "05172",
        "departamento_codigo": "05",
        "nombre": "CHIGORODÓ",
        "latitud": 7.631665644,
        "longitud": -76.639642127,
        "spiga_id": "36",
        "departamento": {
            "codigo": "05",
            "nombre": "ANTIOQUIA",
            "latitud": 6.702032125,
            "longitud": -75.504557037
        }
    },
    {
        "codigo": "05190",
        "departamento_codigo": "05",
        "nombre": "CISNEROS",
        "latitud": 6.550065431,
        "longitud": -75.08254116,
        "spiga_id": "37",
        "departamento": {
            "codigo": "05",
            "nombre": "ANTIOQUIA",
            "latitud": 6.702032125,
            "longitud": -75.504557037
        }
    },
    {
        "codigo": "05197",
        "departamento_codigo": "05",
        "nombre": "COCORNÁ",
        "latitud": 6.005593074,
        "longitud": -75.160154033,
        "spiga_id": "38",
        "departamento": {
            "codigo": "05",
            "nombre": "ANTIOQUIA",
            "latitud": 6.702032125,
            "longitud": -75.504557037
        }
    },
    {
        "codigo": "05206",
        "departamento_codigo": "05",
        "nombre": "CONCEPCIÓN",
        "latitud": 6.3761061869999995,
        "longitud": -75.217859014,
        "spiga_id": "22",
        "departamento": {
            "codigo": "05",
            "nombre": "ANTIOQUIA",
            "latitud": 6.702032125,
            "longitud": -75.504557037
        }
    },
    {
        "codigo": "05209",
        "departamento_codigo": "05",
        "nombre": "CONCORDIA",
        "latitud": 6.057468678,
        "longitud": -75.900146783,
        "spiga_id": "8",
        "departamento": {
            "codigo": "05",
            "nombre": "ANTIOQUIA",
            "latitud": 6.702032125,
            "longitud": -75.504557037
        }
    },
    {
        "codigo": "05212",
        "departamento_codigo": "05",
        "nombre": "COPACABANA",
        "latitud": 6.351882893,
        "longitud": -75.50075633,
        "spiga_id": "41",
        "departamento": {
            "codigo": "05",
            "nombre": "ANTIOQUIA",
            "latitud": 6.702032125,
            "longitud": -75.504557037
        }
    },
    {
        "codigo": "05234",
        "departamento_codigo": "05",
        "nombre": "DABEIBA",
        "latitud": 6.992243782,
        "longitud": -76.314263284,
        "spiga_id": "42",
        "departamento": {
            "codigo": "05",
            "nombre": "ANTIOQUIA",
            "latitud": 6.702032125,
            "longitud": -75.504557037
        }
    },
    {
        "codigo": "05237",
        "departamento_codigo": "05",
        "nombre": "DONMATÍAS",
        "latitud": 6.492403905,
        "longitud": -75.422276872,
        "spiga_id": "43",
        "departamento": {
            "codigo": "05",
            "nombre": "ANTIOQUIA",
            "latitud": 6.702032125,
            "longitud": -75.504557037
        }
    },
    {
        "codigo": "05240",
        "departamento_codigo": "05",
        "nombre": "EBÉJICO",
        "latitud": 6.326444922,
        "longitud": -75.783311748,
        "spiga_id": "44",
        "departamento": {
            "codigo": "05",
            "nombre": "ANTIOQUIA",
            "latitud": 6.702032125,
            "longitud": -75.504557037
        }
    },
    {
        "codigo": "05250",
        "departamento_codigo": "05",
        "nombre": "EL BAGRE",
        "latitud": 7.704633351,
        "longitud": -74.664277263,
        "spiga_id": "45",
        "departamento": {
            "codigo": "05",
            "nombre": "ANTIOQUIA",
            "latitud": 6.702032125,
            "longitud": -75.504557037
        }
    },
    {
        "codigo": "05264",
        "departamento_codigo": "05",
        "nombre": "ENTRERRÍOS",
        "latitud": 6.594656004,
        "longitud": -75.559130833,
        "spiga_id": "46",
        "departamento": {
            "codigo": "05",
            "nombre": "ANTIOQUIA",
            "latitud": 6.702032125,
            "longitud": -75.504557037
        }
    },
    {
        "codigo": "05266",
        "departamento_codigo": "05",
        "nombre": "ENVIGADO",
        "latitud": 6.154394922,
        "longitud": -75.546867788,
        "spiga_id": "47",
        "departamento": {
            "codigo": "05",
            "nombre": "ANTIOQUIA",
            "latitud": 6.702032125,
            "longitud": -75.504557037
        }
    },
    {
        "codigo": "05282",
        "departamento_codigo": "05",
        "nombre": "FREDONIA",
        "latitud": 5.887702934,
        "longitud": -75.679262419,
        "spiga_id": "48",
        "departamento": {
            "codigo": "05",
            "nombre": "ANTIOQUIA",
            "latitud": 6.702032125,
            "longitud": -75.504557037
        }
    },
    {
        "codigo": "05284",
        "departamento_codigo": "05",
        "nombre": "FRONTINO",
        "latitud": 6.691364773,
        "longitud": -76.33199656,
        "spiga_id": "49",
        "departamento": {
            "codigo": "05",
            "nombre": "ANTIOQUIA",
            "latitud": 6.702032125,
            "longitud": -75.504557037
        }
    },
    {
        "codigo": "05306",
        "departamento_codigo": "05",
        "nombre": "GIRALDO",
        "latitud": 6.663095863,
        "longitud": -75.948046628,
        "spiga_id": "50",
        "departamento": {
            "codigo": "05",
            "nombre": "ANTIOQUIA",
            "latitud": 6.702032125,
            "longitud": -75.504557037
        }
    },
    {
        "codigo": "05308",
        "departamento_codigo": "05",
        "nombre": "GIRARDOTA",
        "latitud": 6.379745895,
        "longitud": -75.447957442,
        "spiga_id": "51",
        "departamento": {
            "codigo": "05",
            "nombre": "ANTIOQUIA",
            "latitud": 6.702032125,
            "longitud": -75.504557037
        }
    },
    {
        "codigo": "05310",
        "departamento_codigo": "05",
        "nombre": "GÓMEZ PLATA",
        "latitud": 6.709562839,
        "longitud": -75.192702912,
        "spiga_id": "52",
        "departamento": {
            "codigo": "05",
            "nombre": "ANTIOQUIA",
            "latitud": 6.702032125,
            "longitud": -75.504557037
        }
    },
    {
        "codigo": "05313",
        "departamento_codigo": "05",
        "nombre": "GRANADA",
        "latitud": 6.123380721,
        "longitud": -75.127636463,
        "spiga_id": "12",
        "departamento": {
            "codigo": "05",
            "nombre": "ANTIOQUIA",
            "latitud": 6.702032125,
            "longitud": -75.504557037
        }
    },
    {
        "codigo": "05315",
        "departamento_codigo": "05",
        "nombre": "GUADALUPE",
        "latitud": 6.861576325,
        "longitud": -75.225913027,
        "spiga_id": "39",
        "departamento": {
            "codigo": "05",
            "nombre": "ANTIOQUIA",
            "latitud": 6.702032125,
            "longitud": -75.504557037
        }
    },
    {
        "codigo": "05318",
        "departamento_codigo": "05",
        "nombre": "GUARNE",
        "latitud": 6.266625703,
        "longitud": -75.437308008,
        "spiga_id": "55",
        "departamento": {
            "codigo": "05",
            "nombre": "ANTIOQUIA",
            "latitud": 6.702032125,
            "longitud": -75.504557037
        }
    },
    {
        "codigo": "05321",
        "departamento_codigo": "05",
        "nombre": "GUATAPÉ",
        "latitud": 6.236329826,
        "longitud": -75.156512723,
        "spiga_id": "56",
        "departamento": {
            "codigo": "05",
            "nombre": "ANTIOQUIA",
            "latitud": 6.702032125,
            "longitud": -75.504557037
        }
    },
    {
        "codigo": "05347",
        "departamento_codigo": "05",
        "nombre": "HELICONIA",
        "latitud": 6.214511788,
        "longitud": -75.749710019,
        "spiga_id": "57",
        "departamento": {
            "codigo": "05",
            "nombre": "ANTIOQUIA",
            "latitud": 6.702032125,
            "longitud": -75.504557037
        }
    },
    {
        "codigo": "05353",
        "departamento_codigo": "05",
        "nombre": "HISPANIA",
        "latitud": 5.797039002,
        "longitud": -75.906692028,
        "spiga_id": "58",
        "departamento": {
            "codigo": "05",
            "nombre": "ANTIOQUIA",
            "latitud": 6.702032125,
            "longitud": -75.504557037
        }
    },
    {
        "codigo": "05360",
        "departamento_codigo": "05",
        "nombre": "ITAGÜÍ",
        "latitud": 6.179279438,
        "longitud": -75.614203699,
        "spiga_id": "59",
        "departamento": {
            "codigo": "05",
            "nombre": "ANTIOQUIA",
            "latitud": 6.702032125,
            "longitud": -75.504557037
        }
    },
    {
        "codigo": "05361",
        "departamento_codigo": "05",
        "nombre": "ITUANGO",
        "latitud": 7.341549718,
        "longitud": -75.678422773,
        "spiga_id": "60",
        "departamento": {
            "codigo": "05",
            "nombre": "ANTIOQUIA",
            "latitud": 6.702032125,
            "longitud": -75.504557037
        }
    },
    {
        "codigo": "05364",
        "departamento_codigo": "05",
        "nombre": "JARDÍN",
        "latitud": 5.574444339,
        "longitud": -75.818425748,
        "spiga_id": "61",
        "departamento": {
            "codigo": "05",
            "nombre": "ANTIOQUIA",
            "latitud": 6.702032125,
            "longitud": -75.504557037
        }
    },
    {
        "codigo": "05368",
        "departamento_codigo": "05",
        "nombre": "JERICÓ",
        "latitud": 5.769820536,
        "longitud": -75.764882556,
        "spiga_id": "46",
        "departamento": {
            "codigo": "05",
            "nombre": "ANTIOQUIA",
            "latitud": 6.702032125,
            "longitud": -75.504557037
        }
    },
    {
        "codigo": "05376",
        "departamento_codigo": "05",
        "nombre": "LA CEJA",
        "latitud": 5.992524843,
        "longitud": -75.430869347,
        "spiga_id": "63",
        "departamento": {
            "codigo": "05",
            "nombre": "ANTIOQUIA",
            "latitud": 6.702032125,
            "longitud": -75.504557037
        }
    },
    {
        "codigo": "05380",
        "departamento_codigo": "05",
        "nombre": "LA ESTRELLA",
        "latitud": 6.137595883,
        "longitud": -75.648954991,
        "spiga_id": "64",
        "departamento": {
            "codigo": "05",
            "nombre": "ANTIOQUIA",
            "latitud": 6.702032125,
            "longitud": -75.504557037
        }
    },
    {
        "codigo": "05390",
        "departamento_codigo": "05",
        "nombre": "LA PINTADA",
        "latitud": 5.746583958,
        "longitud": -75.60220206,
        "spiga_id": "65",
        "departamento": {
            "codigo": "05",
            "nombre": "ANTIOQUIA",
            "latitud": 6.702032125,
            "longitud": -75.504557037
        }
    },
    {
        "codigo": "05400",
        "departamento_codigo": "05",
        "nombre": "LA UNIÓN",
        "latitud": 5.940434685,
        "longitud": -75.354290227,
        "spiga_id": "25",
        "departamento": {
            "codigo": "05",
            "nombre": "ANTIOQUIA",
            "latitud": 6.702032125,
            "longitud": -75.504557037
        }
    },
    {
        "codigo": "05411",
        "departamento_codigo": "05",
        "nombre": "LIBORINA",
        "latitud": 6.723990935,
        "longitud": -75.783000458,
        "spiga_id": "67",
        "departamento": {
            "codigo": "05",
            "nombre": "ANTIOQUIA",
            "latitud": 6.702032125,
            "longitud": -75.504557037
        }
    },
    {
        "codigo": "05425",
        "departamento_codigo": "05",
        "nombre": "MACEO",
        "latitud": 6.534573585,
        "longitud": -74.714108541,
        "spiga_id": "68",
        "departamento": {
            "codigo": "05",
            "nombre": "ANTIOQUIA",
            "latitud": 6.702032125,
            "longitud": -75.504557037
        }
    },
    {
        "codigo": "05440",
        "departamento_codigo": "05",
        "nombre": "MARINILLA",
        "latitud": 6.18520515,
        "longitud": -75.304879329,
        "spiga_id": "69",
        "departamento": {
            "codigo": "05",
            "nombre": "ANTIOQUIA",
            "latitud": 6.702032125,
            "longitud": -75.504557037
        }
    },
    {
        "codigo": "05467",
        "departamento_codigo": "05",
        "nombre": "MONTEBELLO",
        "latitud": 5.916853903,
        "longitud": -75.519726926,
        "spiga_id": "71",
        "departamento": {
            "codigo": "05",
            "nombre": "ANTIOQUIA",
            "latitud": 6.702032125,
            "longitud": -75.504557037
        }
    },
    {
        "codigo": "05475",
        "departamento_codigo": "05",
        "nombre": "MURINDÓ",
        "latitud": 6.828773855,
        "longitud": -76.708613491,
        "spiga_id": "72",
        "departamento": {
            "codigo": "05",
            "nombre": "ANTIOQUIA",
            "latitud": 6.702032125,
            "longitud": -75.504557037
        }
    },
    {
        "codigo": "05480",
        "departamento_codigo": "05",
        "nombre": "MUTATÁ",
        "latitud": 7.329557848,
        "longitud": -76.463065695,
        "spiga_id": "73",
        "departamento": {
            "codigo": "05",
            "nombre": "ANTIOQUIA",
            "latitud": 6.702032125,
            "longitud": -75.504557037
        }
    },
    {
        "codigo": "05483",
        "departamento_codigo": "05",
        "nombre": "NARIÑO",
        "latitud": 5.581275312,
        "longitud": -75.194570185,
        "spiga_id": "41",
        "departamento": {
            "codigo": "05",
            "nombre": "ANTIOQUIA",
            "latitud": 6.702032125,
            "longitud": -75.504557037
        }
    },
    {
        "codigo": "05490",
        "departamento_codigo": "05",
        "nombre": "NECOCLÍ",
        "latitud": 8.493728551,
        "longitud": -76.676995884,
        "spiga_id": "76",
        "departamento": {
            "codigo": "05",
            "nombre": "ANTIOQUIA",
            "latitud": 6.702032125,
            "longitud": -75.504557037
        }
    },
    {
        "codigo": "05495",
        "departamento_codigo": "05",
        "nombre": "NECHÍ",
        "latitud": 7.983477394,
        "longitud": -74.65844186,
        "spiga_id": "75",
        "departamento": {
            "codigo": "05",
            "nombre": "ANTIOQUIA",
            "latitud": 6.702032125,
            "longitud": -75.504557037
        }
    },
    {
        "codigo": "05501",
        "departamento_codigo": "05",
        "nombre": "OLAYA",
        "latitud": 6.611418083,
        "longitud": -75.775670969,
        "spiga_id": "77",
        "departamento": {
            "codigo": "05",
            "nombre": "ANTIOQUIA",
            "latitud": 6.702032125,
            "longitud": -75.504557037
        }
    },
    {
        "codigo": "05541",
        "departamento_codigo": "05",
        "nombre": "PEÑOL",
        "latitud": 6.232396368,
        "longitud": -75.223509055,
        "spiga_id": "78",
        "departamento": {
            "codigo": "05",
            "nombre": "ANTIOQUIA",
            "latitud": 6.702032125,
            "longitud": -75.504557037
        }
    },
    {
        "codigo": "05543",
        "departamento_codigo": "05",
        "nombre": "PEQUE",
        "latitud": 7.044180058,
        "longitud": -75.889688434,
        "spiga_id": "79",
        "departamento": {
            "codigo": "05",
            "nombre": "ANTIOQUIA",
            "latitud": 6.702032125,
            "longitud": -75.504557037
        }
    },
    {
        "codigo": "05576",
        "departamento_codigo": "05",
        "nombre": "PUEBLORRICO",
        "latitud": 5.80970186,
        "longitud": -75.860766666,
        "spiga_id": "80",
        "departamento": {
            "codigo": "05",
            "nombre": "ANTIOQUIA",
            "latitud": 6.702032125,
            "longitud": -75.504557037
        }
    },
    {
        "codigo": "05579",
        "departamento_codigo": "05",
        "nombre": "PUERTO BERRÍO",
        "latitud": 6.481922267,
        "longitud": -74.528742101,
        "spiga_id": "81",
        "departamento": {
            "codigo": "05",
            "nombre": "ANTIOQUIA",
            "latitud": 6.702032125,
            "longitud": -75.504557037
        }
    },
    {
        "codigo": "05585",
        "departamento_codigo": "05",
        "nombre": "PUERTO NARE",
        "latitud": 6.126539139,
        "longitud": -74.703177217,
        "spiga_id": "82",
        "departamento": {
            "codigo": "05",
            "nombre": "ANTIOQUIA",
            "latitud": 6.702032125,
            "longitud": -75.504557037
        }
    },
    {
        "codigo": "05591",
        "departamento_codigo": "05",
        "nombre": "PUERTO TRIUNFO",
        "latitud": 5.954830151,
        "longitud": -74.686191798,
        "spiga_id": "83",
        "departamento": {
            "codigo": "05",
            "nombre": "ANTIOQUIA",
            "latitud": 6.702032125,
            "longitud": -75.504557037
        }
    },
    {
        "codigo": "05604",
        "departamento_codigo": "05",
        "nombre": "REMEDIOS",
        "latitud": 6.997267375,
        "longitud": -74.558656518,
        "spiga_id": "84",
        "departamento": {
            "codigo": "05",
            "nombre": "ANTIOQUIA",
            "latitud": 6.702032125,
            "longitud": -75.504557037
        }
    },
    {
        "codigo": "05607",
        "departamento_codigo": "05",
        "nombre": "RETIRO",
        "latitud": 6.053444254,
        "longitud": -75.515738045,
        "spiga_id": "85",
        "departamento": {
            "codigo": "05",
            "nombre": "ANTIOQUIA",
            "latitud": 6.702032125,
            "longitud": -75.504557037
        }
    },
    {
        "codigo": "05615",
        "departamento_codigo": "05",
        "nombre": "RIONEGRO",
        "latitud": 6.150785807,
        "longitud": -75.410760524,
        "spiga_id": "67",
        "departamento": {
            "codigo": "05",
            "nombre": "ANTIOQUIA",
            "latitud": 6.702032125,
            "longitud": -75.504557037
        }
    },
    {
        "codigo": "05628",
        "departamento_codigo": "05",
        "nombre": "SABANALARGA",
        "latitud": 6.901000506,
        "longitud": -75.792227535,
        "spiga_id": "13",
        "departamento": {
            "codigo": "05",
            "nombre": "ANTIOQUIA",
            "latitud": 6.702032125,
            "longitud": -75.504557037
        }
    },
    {
        "codigo": "05631",
        "departamento_codigo": "05",
        "nombre": "SABANETA",
        "latitud": 6.138305183,
        "longitud": -75.608805993,
        "spiga_id": "88",
        "departamento": {
            "codigo": "05",
            "nombre": "ANTIOQUIA",
            "latitud": 6.702032125,
            "longitud": -75.504557037
        }
    },
    {
        "codigo": "05642",
        "departamento_codigo": "05",
        "nombre": "SALGAR",
        "latitud": 5.970502334,
        "longitud": -75.981372511,
        "spiga_id": "89",
        "departamento": {
            "codigo": "05",
            "nombre": "ANTIOQUIA",
            "latitud": 6.702032125,
            "longitud": -75.504557037
        }
    },
    {
        "codigo": "05647",
        "departamento_codigo": "05",
        "nombre": "SAN ANDRÉS DE CUERQUÍA",
        "latitud": 6.918427233,
        "longitud": -75.6657758,
        "spiga_id": "90",
        "departamento": {
            "codigo": "05",
            "nombre": "ANTIOQUIA",
            "latitud": 6.702032125,
            "longitud": -75.504557037
        }
    },
    {
        "codigo": "05649",
        "departamento_codigo": "05",
        "nombre": "SAN CARLOS",
        "latitud": 6.193789659,
        "longitud": -74.90732769,
        "spiga_id": "26",
        "departamento": {
            "codigo": "05",
            "nombre": "ANTIOQUIA",
            "latitud": 6.702032125,
            "longitud": -75.504557037
        }
    },
    {
        "codigo": "05652",
        "departamento_codigo": "05",
        "nombre": "SAN FRANCISCO",
        "latitud": 5.840093731,
        "longitud": -74.98176334,
        "spiga_id": "9",
        "departamento": {
            "codigo": "05",
            "nombre": "ANTIOQUIA",
            "latitud": 6.702032125,
            "longitud": -75.504557037
        }
    },
    {
        "codigo": "05656",
        "departamento_codigo": "05",
        "nombre": "SAN JERÓNIMO",
        "latitud": 6.438300409,
        "longitud": -75.703107272,
        "spiga_id": "93",
        "departamento": {
            "codigo": "05",
            "nombre": "ANTIOQUIA",
            "latitud": 6.702032125,
            "longitud": -75.504557037
        }
    },
    {
        "codigo": "05658",
        "departamento_codigo": "05",
        "nombre": "SAN JOSÉ DE LA MONTAÑA",
        "latitud": 6.823258913,
        "longitud": -75.677708262,
        "spiga_id": "94",
        "departamento": {
            "codigo": "05",
            "nombre": "ANTIOQUIA",
            "latitud": 6.702032125,
            "longitud": -75.504557037
        }
    },
    {
        "codigo": "05659",
        "departamento_codigo": "05",
        "nombre": "SAN JUAN DE URABÁ",
        "latitud": 8.707141583,
        "longitud": -76.532482343,
        "spiga_id": "95",
        "departamento": {
            "codigo": "05",
            "nombre": "ANTIOQUIA",
            "latitud": 6.702032125,
            "longitud": -75.504557037
        }
    },
    {
        "codigo": "05660",
        "departamento_codigo": "05",
        "nombre": "SAN LUIS",
        "latitud": 6.024205956,
        "longitud": -75.007667403,
        "spiga_id": "42",
        "departamento": {
            "codigo": "05",
            "nombre": "ANTIOQUIA",
            "latitud": 6.702032125,
            "longitud": -75.504557037
        }
    },
    {
        "codigo": "05664",
        "departamento_codigo": "05",
        "nombre": "SAN PEDRO DE LOS MILAGROS",
        "latitud": 6.458666308,
        "longitud": -75.562483898,
        "spiga_id": "97",
        "departamento": {
            "codigo": "05",
            "nombre": "ANTIOQUIA",
            "latitud": 6.702032125,
            "longitud": -75.504557037
        }
    },
    {
        "codigo": "05665",
        "departamento_codigo": "05",
        "nombre": "SAN PEDRO DE URABÁ",
        "latitud": 8.37915695,
        "longitud": -76.316642334,
        "spiga_id": "98",
        "departamento": {
            "codigo": "05",
            "nombre": "ANTIOQUIA",
            "latitud": 6.702032125,
            "longitud": -75.504557037
        }
    },
    {
        "codigo": "05667",
        "departamento_codigo": "05",
        "nombre": "SAN RAFAEL",
        "latitud": 6.31074453,
        "longitud": -74.998586516,
        "spiga_id": "99",
        "departamento": {
            "codigo": "05",
            "nombre": "ANTIOQUIA",
            "latitud": 6.702032125,
            "longitud": -75.504557037
        }
    },
    {
        "codigo": "05670",
        "departamento_codigo": "05",
        "nombre": "SAN ROQUE",
        "latitud": 6.466165211,
        "longitud": -74.945073196,
        "spiga_id": "100",
        "departamento": {
            "codigo": "05",
            "nombre": "ANTIOQUIA",
            "latitud": 6.702032125,
            "longitud": -75.504557037
        }
    },
    {
        "codigo": "05674",
        "departamento_codigo": "05",
        "nombre": "SAN VICENTE FERRER",
        "latitud": 6.310387522,
        "longitud": -75.327401628,
        "spiga_id": "101",
        "departamento": {
            "codigo": "05",
            "nombre": "ANTIOQUIA",
            "latitud": 6.702032125,
            "longitud": -75.504557037
        }
    },
    {
        "codigo": "05679",
        "departamento_codigo": "05",
        "nombre": "SANTA BÁRBARA",
        "latitud": 5.878984956,
        "longitud": -75.583303711,
        "spiga_id": "76",
        "departamento": {
            "codigo": "05",
            "nombre": "ANTIOQUIA",
            "latitud": 6.702032125,
            "longitud": -75.504557037
        }
    },
    {
        "codigo": "05686",
        "departamento_codigo": "05",
        "nombre": "SANTA ROSA DE OSOS",
        "latitud": 6.675827825,
        "longitud": -75.438143332,
        "spiga_id": "103",
        "departamento": {
            "codigo": "05",
            "nombre": "ANTIOQUIA",
            "latitud": 6.702032125,
            "longitud": -75.504557037
        }
    },
    {
        "codigo": "05690",
        "departamento_codigo": "05",
        "nombre": "SANTO DOMINGO",
        "latitud": 6.481044132,
        "longitud": -75.142600968,
        "spiga_id": "104",
        "departamento": {
            "codigo": "05",
            "nombre": "ANTIOQUIA",
            "latitud": 6.702032125,
            "longitud": -75.504557037
        }
    },
    {
        "codigo": "05697",
        "departamento_codigo": "05",
        "nombre": "EL SANTUARIO",
        "latitud": 6.124209495,
        "longitud": -75.252122776,
        "spiga_id": "105",
        "departamento": {
            "codigo": "05",
            "nombre": "ANTIOQUIA",
            "latitud": 6.702032125,
            "longitud": -75.504557037
        }
    },
    {
        "codigo": "05736",
        "departamento_codigo": "05",
        "nombre": "SEGOVIA",
        "latitud": 7.26692339,
        "longitud": -74.621639263,
        "spiga_id": "106",
        "departamento": {
            "codigo": "05",
            "nombre": "ANTIOQUIA",
            "latitud": 6.702032125,
            "longitud": -75.504557037
        }
    },
    {
        "codigo": "05756",
        "departamento_codigo": "05",
        "nombre": "SONSÓN",
        "latitud": 5.826388779,
        "longitud": -74.836376225,
        "spiga_id": "107",
        "departamento": {
            "codigo": "05",
            "nombre": "ANTIOQUIA",
            "latitud": 6.702032125,
            "longitud": -75.504557037
        }
    },
    {
        "codigo": "05761",
        "departamento_codigo": "05",
        "nombre": "SOPETRÁN",
        "latitud": 6.520164552,
        "longitud": -75.745809033,
        "spiga_id": "108",
        "departamento": {
            "codigo": "05",
            "nombre": "ANTIOQUIA",
            "latitud": 6.702032125,
            "longitud": -75.504557037
        }
    },
    {
        "codigo": "05789",
        "departamento_codigo": "05",
        "nombre": "TÁMESIS",
        "latitud": 5.6737585710000005,
        "longitud": -75.709799743,
        "spiga_id": "109",
        "departamento": {
            "codigo": "05",
            "nombre": "ANTIOQUIA",
            "latitud": 6.702032125,
            "longitud": -75.504557037
        }
    },
    {
        "codigo": "05790",
        "departamento_codigo": "05",
        "nombre": "TARAZÁ",
        "latitud": 7.488875998,
        "longitud": -75.401894377,
        "spiga_id": "110",
        "departamento": {
            "codigo": "05",
            "nombre": "ANTIOQUIA",
            "latitud": 6.702032125,
            "longitud": -75.504557037
        }
    },
    {
        "codigo": "05792",
        "departamento_codigo": "05",
        "nombre": "TARSO",
        "latitud": 5.871064557,
        "longitud": -75.828711443,
        "spiga_id": "111",
        "departamento": {
            "codigo": "05",
            "nombre": "ANTIOQUIA",
            "latitud": 6.702032125,
            "longitud": -75.504557037
        }
    },
    {
        "codigo": "05809",
        "departamento_codigo": "05",
        "nombre": "TITIRIBÍ",
        "latitud": 6.058349971,
        "longitud": -75.799660047,
        "spiga_id": "112",
        "departamento": {
            "codigo": "05",
            "nombre": "ANTIOQUIA",
            "latitud": 6.702032125,
            "longitud": -75.504557037
        }
    },
    {
        "codigo": "05819",
        "departamento_codigo": "05",
        "nombre": "TOLEDO",
        "latitud": 7.016397069,
        "longitud": -75.71363382,
        "spiga_id": "39",
        "departamento": {
            "codigo": "05",
            "nombre": "ANTIOQUIA",
            "latitud": 6.702032125,
            "longitud": -75.504557037
        }
    },
    {
        "codigo": "05837",
        "departamento_codigo": "05",
        "nombre": "TURBO",
        "latitud": 8.173851745,
        "longitud": -76.574037701,
        "spiga_id": "114",
        "departamento": {
            "codigo": "05",
            "nombre": "ANTIOQUIA",
            "latitud": 6.702032125,
            "longitud": -75.504557037
        }
    },
    {
        "codigo": "05842",
        "departamento_codigo": "05",
        "nombre": "URAMITA",
        "latitud": 6.9139169240000005,
        "longitud": -76.133185136,
        "spiga_id": "115",
        "departamento": {
            "codigo": "05",
            "nombre": "ANTIOQUIA",
            "latitud": 6.702032125,
            "longitud": -75.504557037
        }
    },
    {
        "codigo": "05847",
        "departamento_codigo": "05",
        "nombre": "URRAO",
        "latitud": 6.33534134,
        "longitud": -76.259064819,
        "spiga_id": "116",
        "departamento": {
            "codigo": "05",
            "nombre": "ANTIOQUIA",
            "latitud": 6.702032125,
            "longitud": -75.504557037
        }
    },
    {
        "codigo": "05854",
        "departamento_codigo": "05",
        "nombre": "VALDIVIA",
        "latitud": 7.265404213,
        "longitud": -75.400945015,
        "spiga_id": "117",
        "departamento": {
            "codigo": "05",
            "nombre": "ANTIOQUIA",
            "latitud": 6.702032125,
            "longitud": -75.504557037
        }
    },
    {
        "codigo": "05856",
        "departamento_codigo": "05",
        "nombre": "VALPARAÍSO",
        "latitud": 5.651937802,
        "longitud": -75.630834123,
        "spiga_id": "17",
        "departamento": {
            "codigo": "05",
            "nombre": "ANTIOQUIA",
            "latitud": 6.702032125,
            "longitud": -75.504557037
        }
    },
    {
        "codigo": "05858",
        "departamento_codigo": "05",
        "nombre": "VEGACHÍ",
        "latitud": 6.836535122,
        "longitud": -74.754030203,
        "spiga_id": "119",
        "departamento": {
            "codigo": "05",
            "nombre": "ANTIOQUIA",
            "latitud": 6.702032125,
            "longitud": -75.504557037
        }
    },
    {
        "codigo": "05861",
        "departamento_codigo": "05",
        "nombre": "VENECIA",
        "latitud": 5.956576355,
        "longitud": -75.777224226,
        "spiga_id": "65",
        "departamento": {
            "codigo": "05",
            "nombre": "ANTIOQUIA",
            "latitud": 6.702032125,
            "longitud": -75.504557037
        }
    },
    {
        "codigo": "05873",
        "departamento_codigo": "05",
        "nombre": "VIGÍA DEL FUERTE",
        "latitud": 6.453351334,
        "longitud": -76.695048017,
        "spiga_id": "121",
        "departamento": {
            "codigo": "05",
            "nombre": "ANTIOQUIA",
            "latitud": 6.702032125,
            "longitud": -75.504557037
        }
    },
    {
        "codigo": "05885",
        "departamento_codigo": "05",
        "nombre": "YALÍ",
        "latitud": 6.716870679,
        "longitud": -74.75565002,
        "spiga_id": "122",
        "departamento": {
            "codigo": "05",
            "nombre": "ANTIOQUIA",
            "latitud": 6.702032125,
            "longitud": -75.504557037
        }
    },
    {
        "codigo": "05887",
        "departamento_codigo": "05",
        "nombre": "YARUMAL",
        "latitud": 6.9881309,
        "longitud": -75.454399574,
        "spiga_id": "123",
        "departamento": {
            "codigo": "05",
            "nombre": "ANTIOQUIA",
            "latitud": 6.702032125,
            "longitud": -75.504557037
        }
    },
    {
        "codigo": "05890",
        "departamento_codigo": "05",
        "nombre": "YOLOMBÓ",
        "latitud": 6.64442786,
        "longitud": -75.029902658,
        "spiga_id": "124",
        "departamento": {
            "codigo": "05",
            "nombre": "ANTIOQUIA",
            "latitud": 6.702032125,
            "longitud": -75.504557037
        }
    },
    {
        "codigo": "05893",
        "departamento_codigo": "05",
        "nombre": "YONDÓ",
        "latitud": 6.925159318,
        "longitud": -74.158240414,
        "spiga_id": "125",
        "departamento": {
            "codigo": "05",
            "nombre": "ANTIOQUIA",
            "latitud": 6.702032125,
            "longitud": -75.504557037
        }
    },
    {
        "codigo": "05895",
        "departamento_codigo": "05",
        "nombre": "ZARAGOZA",
        "latitud": 7.474004006,
        "longitud": -74.858483258,
        "spiga_id": "126",
        "departamento": {
            "codigo": "05",
            "nombre": "ANTIOQUIA",
            "latitud": 6.702032125,
            "longitud": -75.504557037
        }
    },
    {
        "codigo": "08001",
        "departamento_codigo": "08",
        "nombre": "BARRANQUILLA",
        "latitud": 10.98152051,
        "longitud": -74.827715439,
        "spiga_id": "24",
        "departamento": {
            "codigo": "08",
            "nombre": "ATLÁNTICO",
            "latitud": 10.677009534,
            "longitud": -74.965219492
        }
    },
    {
        "codigo": "08078",
        "departamento_codigo": "08",
        "nombre": "BARANOA",
        "latitud": 10.793293019,
        "longitud": -74.922194906,
        "spiga_id": "2",
        "departamento": {
            "codigo": "08",
            "nombre": "ATLÁNTICO",
            "latitud": 10.677009534,
            "longitud": -74.965219492
        }
    },
    {
        "codigo": "08137",
        "departamento_codigo": "08",
        "nombre": "CAMPO DE LA CRUZ",
        "latitud": 10.38405079,
        "longitud": -74.884660393,
        "spiga_id": "3",
        "departamento": {
            "codigo": "08",
            "nombre": "ATLÁNTICO",
            "latitud": 10.677009534,
            "longitud": -74.965219492
        }
    },
    {
        "codigo": "08141",
        "departamento_codigo": "08",
        "nombre": "CANDELARIA",
        "latitud": 10.489020471,
        "longitud": -74.877566268,
        "spiga_id": "12",
        "departamento": {
            "codigo": "08",
            "nombre": "ATLÁNTICO",
            "latitud": 10.677009534,
            "longitud": -74.965219492
        }
    },
    {
        "codigo": "08296",
        "departamento_codigo": "08",
        "nombre": "GALAPA",
        "latitud": 10.897719907,
        "longitud": -74.887087876,
        "spiga_id": "5",
        "departamento": {
            "codigo": "08",
            "nombre": "ATLÁNTICO",
            "latitud": 10.677009534,
            "longitud": -74.965219492
        }
    },
    {
        "codigo": "08372",
        "departamento_codigo": "08",
        "nombre": "JUAN DE ACOSTA",
        "latitud": 10.823065032,
        "longitud": -75.078419039,
        "spiga_id": "6",
        "departamento": {
            "codigo": "08",
            "nombre": "ATLÁNTICO",
            "latitud": 10.677009534,
            "longitud": -74.965219492
        }
    },
    {
        "codigo": "08421",
        "departamento_codigo": "08",
        "nombre": "LURUACO",
        "latitud": 10.635031161,
        "longitud": -75.15402741,
        "spiga_id": "7",
        "departamento": {
            "codigo": "08",
            "nombre": "ATLÁNTICO",
            "latitud": 10.677009534,
            "longitud": -74.965219492
        }
    },
    {
        "codigo": "08433",
        "departamento_codigo": "08",
        "nombre": "MALAMBO",
        "latitud": 10.848288642,
        "longitud": -74.806175549,
        "spiga_id": "8",
        "departamento": {
            "codigo": "08",
            "nombre": "ATLÁNTICO",
            "latitud": 10.677009534,
            "longitud": -74.965219492
        }
    },
    {
        "codigo": "08436",
        "departamento_codigo": "08",
        "nombre": "MANATÍ",
        "latitud": 10.454145546,
        "longitud": -74.984773669,
        "spiga_id": "9",
        "departamento": {
            "codigo": "08",
            "nombre": "ATLÁNTICO",
            "latitud": 10.677009534,
            "longitud": -74.965219492
        }
    },
    {
        "codigo": "08520",
        "departamento_codigo": "08",
        "nombre": "PALMAR DE VARELA",
        "latitud": 10.694812078,
        "longitud": -74.770150903,
        "spiga_id": "10",
        "departamento": {
            "codigo": "08",
            "nombre": "ATLÁNTICO",
            "latitud": 10.677009534,
            "longitud": -74.965219492
        }
    },
    {
        "codigo": "08549",
        "departamento_codigo": "08",
        "nombre": "PIOJÓ",
        "latitud": 10.740789594,
        "longitud": -75.143660335,
        "spiga_id": "11",
        "departamento": {
            "codigo": "08",
            "nombre": "ATLÁNTICO",
            "latitud": 10.677009534,
            "longitud": -74.965219492
        }
    },
    {
        "codigo": "08558",
        "departamento_codigo": "08",
        "nombre": "POLONUEVO",
        "latitud": 10.767401414,
        "longitud": -74.854148436,
        "spiga_id": "12",
        "departamento": {
            "codigo": "08",
            "nombre": "ATLÁNTICO",
            "latitud": 10.677009534,
            "longitud": -74.965219492
        }
    },
    {
        "codigo": "08560",
        "departamento_codigo": "08",
        "nombre": "PONEDERA",
        "latitud": 10.594651021,
        "longitud": -74.798473158,
        "spiga_id": "13",
        "departamento": {
            "codigo": "08",
            "nombre": "ATLÁNTICO",
            "latitud": 10.677009534,
            "longitud": -74.965219492
        }
    },
    {
        "codigo": "08573",
        "departamento_codigo": "08",
        "nombre": "PUERTO COLOMBIA",
        "latitud": 11.004422597,
        "longitud": -74.907405804,
        "spiga_id": "14",
        "departamento": {
            "codigo": "08",
            "nombre": "ATLÁNTICO",
            "latitud": 10.677009534,
            "longitud": -74.965219492
        }
    },
    {
        "codigo": "08606",
        "departamento_codigo": "08",
        "nombre": "REPELÓN",
        "latitud": 10.507570513,
        "longitud": -75.121880527,
        "spiga_id": "15",
        "departamento": {
            "codigo": "08",
            "nombre": "ATLÁNTICO",
            "latitud": 10.677009534,
            "longitud": -74.965219492
        }
    },
    {
        "codigo": "08634",
        "departamento_codigo": "08",
        "nombre": "SABANAGRANDE",
        "latitud": 10.798940151,
        "longitud": -74.768796603,
        "spiga_id": "16",
        "departamento": {
            "codigo": "08",
            "nombre": "ATLÁNTICO",
            "latitud": 10.677009534,
            "longitud": -74.965219492
        }
    },
    {
        "codigo": "08638",
        "departamento_codigo": "08",
        "nombre": "SABANALARGA",
        "latitud": 10.622507773,
        "longitud": -74.955105416,
        "spiga_id": null,
        "departamento": {
            "codigo": "08",
            "nombre": "ATLÁNTICO",
            "latitud": 10.677009534,
            "longitud": -74.965219492
        }
    },
    {
        "codigo": "08675",
        "departamento_codigo": "08",
        "nombre": "SANTA LUCÍA",
        "latitud": 10.35364192,
        "longitud": -74.965411787,
        "spiga_id": "18",
        "departamento": {
            "codigo": "08",
            "nombre": "ATLÁNTICO",
            "latitud": 10.677009534,
            "longitud": -74.965219492
        }
    },
    {
        "codigo": "08685",
        "departamento_codigo": "08",
        "nombre": "SANTO TOMÁS",
        "latitud": 10.755626561,
        "longitud": -74.78726468,
        "spiga_id": "19",
        "departamento": {
            "codigo": "08",
            "nombre": "ATLÁNTICO",
            "latitud": 10.677009534,
            "longitud": -74.965219492
        }
    },
    {
        "codigo": "08758",
        "departamento_codigo": "08",
        "nombre": "SOLEDAD",
        "latitud": 10.906906595,
        "longitud": -74.778424903,
        "spiga_id": "20",
        "departamento": {
            "codigo": "08",
            "nombre": "ATLÁNTICO",
            "latitud": 10.677009534,
            "longitud": -74.965219492
        }
    },
    {
        "codigo": "08770",
        "departamento_codigo": "08",
        "nombre": "SUAN",
        "latitud": 10.310850347,
        "longitud": -74.907133084,
        "spiga_id": "21",
        "departamento": {
            "codigo": "08",
            "nombre": "ATLÁNTICO",
            "latitud": 10.677009534,
            "longitud": -74.965219492
        }
    },
    {
        "codigo": "08832",
        "departamento_codigo": "08",
        "nombre": "TUBARÁ",
        "latitud": 10.907219384,
        "longitud": -74.98423293,
        "spiga_id": "22",
        "departamento": {
            "codigo": "08",
            "nombre": "ATLÁNTICO",
            "latitud": 10.677009534,
            "longitud": -74.965219492
        }
    },
    {
        "codigo": "08849",
        "departamento_codigo": "08",
        "nombre": "USIACURÍ",
        "latitud": 10.740522657,
        "longitud": -74.982674126,
        "spiga_id": "23",
        "departamento": {
            "codigo": "08",
            "nombre": "ATLÁNTICO",
            "latitud": 10.677009534,
            "longitud": -74.965219492
        }
    },
    {
        "codigo": "11001",
        "departamento_codigo": "11",
        "nombre": "BOGOTÁ. DC.",
        "latitud": 4.316107698,
        "longitud": -74.181072702,
        "spiga_id": "1",
        "departamento": {
            "codigo": "11",
            "nombre": "BOGOTÁ. D.C",
            "latitud": 4.316107698,
            "longitud": -74.181072702
        }
    },
    {
        "codigo": "13001",
        "departamento_codigo": "13",
        "nombre": "CARTAGENA DE INDIAS",
        "latitud": 10.463433617,
        "longitud": -75.45889915,
        "spiga_id": "46",
        "departamento": {
            "codigo": "13",
            "nombre": "BOLÍVAR",
            "latitud": 8.079796863,
            "longitud": -74.235148136
        }
    },
    {
        "codigo": "13006",
        "departamento_codigo": "13",
        "nombre": "ACHÍ",
        "latitud": 8.622943262,
        "longitud": -74.478059448,
        "spiga_id": "2",
        "departamento": {
            "codigo": "13",
            "nombre": "BOLÍVAR",
            "latitud": 8.079796863,
            "longitud": -74.235148136
        }
    },
    {
        "codigo": "13030",
        "departamento_codigo": "13",
        "nombre": "ALTOS DEL ROSARIO",
        "latitud": 8.757468863,
        "longitud": -74.195158106,
        "spiga_id": "3",
        "departamento": {
            "codigo": "13",
            "nombre": "BOLÍVAR",
            "latitud": 8.079796863,
            "longitud": -74.235148136
        }
    },
    {
        "codigo": "13042",
        "departamento_codigo": "13",
        "nombre": "ARENAL",
        "latitud": 8.362996158,
        "longitud": -74.103019049,
        "spiga_id": "4",
        "departamento": {
            "codigo": "13",
            "nombre": "BOLÍVAR",
            "latitud": 8.079796863,
            "longitud": -74.235148136
        }
    },
    {
        "codigo": "13052",
        "departamento_codigo": "13",
        "nombre": "ARJONA",
        "latitud": 10.164221225,
        "longitud": -75.371217884,
        "spiga_id": "5",
        "departamento": {
            "codigo": "13",
            "nombre": "BOLÍVAR",
            "latitud": 8.079796863,
            "longitud": -74.235148136
        }
    },
    {
        "codigo": "13062",
        "departamento_codigo": "13",
        "nombre": "ARROYOHONDO",
        "latitud": 10.241718046999999,
        "longitud": -75.026904215,
        "spiga_id": "6",
        "departamento": {
            "codigo": "13",
            "nombre": "BOLÍVAR",
            "latitud": 8.079796863,
            "longitud": -74.235148136
        }
    },
    {
        "codigo": "13074",
        "departamento_codigo": "13",
        "nombre": "BARRANCO DE LOBA",
        "latitud": 8.837077654,
        "longitud": -74.279665305,
        "spiga_id": "7",
        "departamento": {
            "codigo": "13",
            "nombre": "BOLÍVAR",
            "latitud": 8.079796863,
            "longitud": -74.235148136
        }
    },
    {
        "codigo": "13140",
        "departamento_codigo": "13",
        "nombre": "CALAMAR",
        "latitud": 10.155170977,
        "longitud": -74.999959492,
        "spiga_id": "2",
        "departamento": {
            "codigo": "13",
            "nombre": "BOLÍVAR",
            "latitud": 8.079796863,
            "longitud": -74.235148136
        }
    },
    {
        "codigo": "13160",
        "departamento_codigo": "13",
        "nombre": "CANTAGALLO",
        "latitud": 7.239229146,
        "longitud": -74.100140429,
        "spiga_id": "9",
        "departamento": {
            "codigo": "13",
            "nombre": "BOLÍVAR",
            "latitud": 8.079796863,
            "longitud": -74.235148136
        }
    },
    {
        "codigo": "13188",
        "departamento_codigo": "13",
        "nombre": "CICUCO",
        "latitud": 9.235268598,
        "longitud": -74.688409615,
        "spiga_id": "10",
        "departamento": {
            "codigo": "13",
            "nombre": "BOLÍVAR",
            "latitud": 8.079796863,
            "longitud": -74.235148136
        }
    },
    {
        "codigo": "13212",
        "departamento_codigo": "13",
        "nombre": "CÓRDOBA",
        "latitud": 9.540047515,
        "longitud": -74.894456346,
        "spiga_id": "6",
        "departamento": {
            "codigo": "13",
            "nombre": "BOLÍVAR",
            "latitud": 8.079796863,
            "longitud": -74.235148136
        }
    },
    {
        "codigo": "13222",
        "departamento_codigo": "13",
        "nombre": "CLEMENCIA",
        "latitud": 10.556636955,
        "longitud": -75.314466528,
        "spiga_id": "11",
        "departamento": {
            "codigo": "13",
            "nombre": "BOLÍVAR",
            "latitud": 8.079796863,
            "longitud": -74.235148136
        }
    },
    {
        "codigo": "13244",
        "departamento_codigo": "13",
        "nombre": "EL CARMEN DE BOLÍVAR",
        "latitud": 9.699819876,
        "longitud": -75.157935726,
        "spiga_id": "13",
        "departamento": {
            "codigo": "13",
            "nombre": "BOLÍVAR",
            "latitud": 8.079796863,
            "longitud": -74.235148136
        }
    },
    {
        "codigo": "13248",
        "departamento_codigo": "13",
        "nombre": "EL GUAMO",
        "latitud": 10.034836723,
        "longitud": -74.928110717,
        "spiga_id": "14",
        "departamento": {
            "codigo": "13",
            "nombre": "BOLÍVAR",
            "latitud": 8.079796863,
            "longitud": -74.235148136
        }
    },
    {
        "codigo": "13268",
        "departamento_codigo": "13",
        "nombre": "EL PEÑÓN",
        "latitud": 8.864818786,
        "longitud": -73.912301472,
        "spiga_id": "29",
        "departamento": {
            "codigo": "13",
            "nombre": "BOLÍVAR",
            "latitud": 8.079796863,
            "longitud": -74.235148136
        }
    },
    {
        "codigo": "13300",
        "departamento_codigo": "13",
        "nombre": "HATILLO DE LOBA",
        "latitud": 8.981717133,
        "longitud": -74.090719016,
        "spiga_id": "16",
        "departamento": {
            "codigo": "13",
            "nombre": "BOLÍVAR",
            "latitud": 8.079796863,
            "longitud": -74.235148136
        }
    },
    {
        "codigo": "13430",
        "departamento_codigo": "13",
        "nombre": "MAGANGUÉ",
        "latitud": 9.053135895,
        "longitud": -74.705393181,
        "spiga_id": "17",
        "departamento": {
            "codigo": "13",
            "nombre": "BOLÍVAR",
            "latitud": 8.079796863,
            "longitud": -74.235148136
        }
    },
    {
        "codigo": "13433",
        "departamento_codigo": "13",
        "nombre": "MAHATES",
        "latitud": 10.178213908,
        "longitud": -75.17978161,
        "spiga_id": "18",
        "departamento": {
            "codigo": "13",
            "nombre": "BOLÍVAR",
            "latitud": 8.079796863,
            "longitud": -74.235148136
        }
    },
    {
        "codigo": "13440",
        "departamento_codigo": "13",
        "nombre": "MARGARITA",
        "latitud": 9.054601889,
        "longitud": -74.225847059,
        "spiga_id": "19",
        "departamento": {
            "codigo": "13",
            "nombre": "BOLÍVAR",
            "latitud": 8.079796863,
            "longitud": -74.235148136
        }
    },
    {
        "codigo": "13442",
        "departamento_codigo": "13",
        "nombre": "MARÍA LA BAJA",
        "latitud": 9.976017168,
        "longitud": -75.343802649,
        "spiga_id": "20",
        "departamento": {
            "codigo": "13",
            "nombre": "BOLÍVAR",
            "latitud": 8.079796863,
            "longitud": -74.235148136
        }
    },
    {
        "codigo": "13458",
        "departamento_codigo": "13",
        "nombre": "MONTECRISTO",
        "latitud": 8.01710024,
        "longitud": -74.463429112,
        "spiga_id": "22",
        "departamento": {
            "codigo": "13",
            "nombre": "BOLÍVAR",
            "latitud": 8.079796863,
            "longitud": -74.235148136
        }
    },
    {
        "codigo": "13468",
        "departamento_codigo": "13",
        "nombre": "SANTA CRUZ DE MOMPOX",
        "latitud": 9.142512064,
        "longitud": -74.545199057,
        "spiga_id": "21",
        "departamento": {
            "codigo": "13",
            "nombre": "BOLÍVAR",
            "latitud": 8.079796863,
            "longitud": -74.235148136
        }
    },
    {
        "codigo": "13473",
        "departamento_codigo": "13",
        "nombre": "MORALES",
        "latitud": 8.253700061,
        "longitud": -73.971345899,
        "spiga_id": "21",
        "departamento": {
            "codigo": "13",
            "nombre": "BOLÍVAR",
            "latitud": 8.079796863,
            "longitud": -74.235148136
        }
    },
    {
        "codigo": "13490",
        "departamento_codigo": "13",
        "nombre": "NOROSÍ",
        "latitud": 8.50613476,
        "longitud": -74.115889115,
        "spiga_id": null,
        "departamento": {
            "codigo": "13",
            "nombre": "BOLÍVAR",
            "latitud": 8.079796863,
            "longitud": -74.235148136
        }
    },
    {
        "codigo": "13549",
        "departamento_codigo": "13",
        "nombre": "PINILLOS",
        "latitud": 8.886315511,
        "longitud": -74.408884758,
        "spiga_id": "24",
        "departamento": {
            "codigo": "13",
            "nombre": "BOLÍVAR",
            "latitud": 8.079796863,
            "longitud": -74.235148136
        }
    },
    {
        "codigo": "13580",
        "departamento_codigo": "13",
        "nombre": "REGIDOR",
        "latitud": 8.672628558,
        "longitud": -73.914506788,
        "spiga_id": "25",
        "departamento": {
            "codigo": "13",
            "nombre": "BOLÍVAR",
            "latitud": 8.079796863,
            "longitud": -74.235148136
        }
    },
    {
        "codigo": "13600",
        "departamento_codigo": "13",
        "nombre": "RÍO VIEJO",
        "latitud": 8.559982465000001,
        "longitud": -73.902986677,
        "spiga_id": "26",
        "departamento": {
            "codigo": "13",
            "nombre": "BOLÍVAR",
            "latitud": 8.079796863,
            "longitud": -74.235148136
        }
    },
    {
        "codigo": "13620",
        "departamento_codigo": "13",
        "nombre": "SAN CRISTÓBAL",
        "latitud": 10.369720871,
        "longitud": -75.073338352,
        "spiga_id": "27",
        "departamento": {
            "codigo": "13",
            "nombre": "BOLÍVAR",
            "latitud": 8.079796863,
            "longitud": -74.235148136
        }
    },
    {
        "codigo": "13647",
        "departamento_codigo": "13",
        "nombre": "SAN ESTANISLAO",
        "latitud": 10.364681919,
        "longitud": -75.205234868,
        "spiga_id": "28",
        "departamento": {
            "codigo": "13",
            "nombre": "BOLÍVAR",
            "latitud": 8.079796863,
            "longitud": -74.235148136
        }
    },
    {
        "codigo": "13650",
        "departamento_codigo": "13",
        "nombre": "SAN FERNANDO",
        "latitud": 9.081483143,
        "longitud": -74.371866466,
        "spiga_id": "29",
        "departamento": {
            "codigo": "13",
            "nombre": "BOLÍVAR",
            "latitud": 8.079796863,
            "longitud": -74.235148136
        }
    },
    {
        "codigo": "13654",
        "departamento_codigo": "13",
        "nombre": "SAN JACINTO",
        "latitud": 9.835362011,
        "longitud": -75.106092009,
        "spiga_id": "30",
        "departamento": {
            "codigo": "13",
            "nombre": "BOLÍVAR",
            "latitud": 8.079796863,
            "longitud": -74.235148136
        }
    },
    {
        "codigo": "13655",
        "departamento_codigo": "13",
        "nombre": "SAN JACINTO DEL CAUCA",
        "latitud": 8.212463202,
        "longitud": -74.75082,
        "spiga_id": "31",
        "departamento": {
            "codigo": "13",
            "nombre": "BOLÍVAR",
            "latitud": 8.079796863,
            "longitud": -74.235148136
        }
    },
    {
        "codigo": "13657",
        "departamento_codigo": "13",
        "nombre": "SAN JUAN NEPOMUCENO",
        "latitud": 9.967957823,
        "longitud": -75.065719587,
        "spiga_id": "32",
        "departamento": {
            "codigo": "13",
            "nombre": "BOLÍVAR",
            "latitud": 8.079796863,
            "longitud": -74.235148136
        }
    },
    {
        "codigo": "13667",
        "departamento_codigo": "13",
        "nombre": "SAN MARTÍN DE LOBA",
        "latitud": 8.816088444,
        "longitud": -74.005999668,
        "spiga_id": "33",
        "departamento": {
            "codigo": "13",
            "nombre": "BOLÍVAR",
            "latitud": 8.079796863,
            "longitud": -74.235148136
        }
    },
    {
        "codigo": "13670",
        "departamento_codigo": "13",
        "nombre": "SAN PABLO",
        "latitud": 7.507922612,
        "longitud": -74.103569774,
        "spiga_id": "55",
        "departamento": {
            "codigo": "13",
            "nombre": "BOLÍVAR",
            "latitud": 8.079796863,
            "longitud": -74.235148136
        }
    },
    {
        "codigo": "13673",
        "departamento_codigo": "13",
        "nombre": "SANTA CATALINA",
        "latitud": 10.649812776,
        "longitud": -75.26548463,
        "spiga_id": "35",
        "departamento": {
            "codigo": "13",
            "nombre": "BOLÍVAR",
            "latitud": 8.079796863,
            "longitud": -74.235148136
        }
    },
    {
        "codigo": "13683",
        "departamento_codigo": "13",
        "nombre": "SANTA ROSA",
        "latitud": 10.469207257,
        "longitud": -75.361160527,
        "spiga_id": "32",
        "departamento": {
            "codigo": "13",
            "nombre": "BOLÍVAR",
            "latitud": 8.079796863,
            "longitud": -74.235148136
        }
    },
    {
        "codigo": "13688",
        "departamento_codigo": "13",
        "nombre": "SANTA ROSA DEL SUR",
        "latitud": 7.772519173,
        "longitud": -74.262728426,
        "spiga_id": "37",
        "departamento": {
            "codigo": "13",
            "nombre": "BOLÍVAR",
            "latitud": 8.079796863,
            "longitud": -74.235148136
        }
    },
    {
        "codigo": "13744",
        "departamento_codigo": "13",
        "nombre": "SIMITÍ",
        "latitud": 7.851315534,
        "longitud": -73.983716091,
        "spiga_id": "38",
        "departamento": {
            "codigo": "13",
            "nombre": "BOLÍVAR",
            "latitud": 8.079796863,
            "longitud": -74.235148136
        }
    },
    {
        "codigo": "13760",
        "departamento_codigo": "13",
        "nombre": "SOPLAVIENTO",
        "latitud": 10.332090314,
        "longitud": -75.116992257,
        "spiga_id": "39",
        "departamento": {
            "codigo": "13",
            "nombre": "BOLÍVAR",
            "latitud": 8.079796863,
            "longitud": -74.235148136
        }
    },
    {
        "codigo": "13780",
        "departamento_codigo": "13",
        "nombre": "TALAIGUA NUEVO",
        "latitud": 9.269516705000001,
        "longitud": -74.586952326,
        "spiga_id": "40",
        "departamento": {
            "codigo": "13",
            "nombre": "BOLÍVAR",
            "latitud": 8.079796863,
            "longitud": -74.235148136
        }
    },
    {
        "codigo": "13810",
        "departamento_codigo": "13",
        "nombre": "TIQUISIO",
        "latitud": 8.492345176,
        "longitud": -74.296761387,
        "spiga_id": "41",
        "departamento": {
            "codigo": "13",
            "nombre": "BOLÍVAR",
            "latitud": 8.079796863,
            "longitud": -74.235148136
        }
    },
    {
        "codigo": "13836",
        "departamento_codigo": "13",
        "nombre": "TURBACO",
        "latitud": 10.353107564,
        "longitud": -75.379715411,
        "spiga_id": "42",
        "departamento": {
            "codigo": "13",
            "nombre": "BOLÍVAR",
            "latitud": 8.079796863,
            "longitud": -74.235148136
        }
    },
    {
        "codigo": "13838",
        "departamento_codigo": "13",
        "nombre": "TURBANÁ",
        "latitud": 10.252769289,
        "longitud": -75.432702985,
        "spiga_id": "43",
        "departamento": {
            "codigo": "13",
            "nombre": "BOLÍVAR",
            "latitud": 8.079796863,
            "longitud": -74.235148136
        }
    },
    {
        "codigo": "13873",
        "departamento_codigo": "13",
        "nombre": "VILLANUEVA",
        "latitud": 10.444913198,
        "longitud": -75.267362754,
        "spiga_id": "19",
        "departamento": {
            "codigo": "13",
            "nombre": "BOLÍVAR",
            "latitud": 8.079796863,
            "longitud": -74.235148136
        }
    },
    {
        "codigo": "13894",
        "departamento_codigo": "13",
        "nombre": "ZAMBRANO",
        "latitud": 9.745147021,
        "longitud": -74.880670367,
        "spiga_id": "45",
        "departamento": {
            "codigo": "13",
            "nombre": "BOLÍVAR",
            "latitud": 8.079796863,
            "longitud": -74.235148136
        }
    },
    {
        "codigo": "15001",
        "departamento_codigo": "15",
        "nombre": "TUNJA",
        "latitud": 5.518472615,
        "longitud": -73.378018556,
        "spiga_id": "115",
        "departamento": {
            "codigo": "15",
            "nombre": "BOYACÁ",
            "latitud": 5.891672889,
            "longitud": -72.627880544
        }
    },
    {
        "codigo": "15022",
        "departamento_codigo": "15",
        "nombre": "ALMEIDA",
        "latitud": 4.954825081,
        "longitud": -73.388134245,
        "spiga_id": "2",
        "departamento": {
            "codigo": "15",
            "nombre": "BOYACÁ",
            "latitud": 5.891672889,
            "longitud": -72.627880544
        }
    },
    {
        "codigo": "15047",
        "departamento_codigo": "15",
        "nombre": "AQUITANIA",
        "latitud": 5.437416373,
        "longitud": -72.871494711,
        "spiga_id": "3",
        "departamento": {
            "codigo": "15",
            "nombre": "BOYACÁ",
            "latitud": 5.891672889,
            "longitud": -72.627880544
        }
    },
    {
        "codigo": "15051",
        "departamento_codigo": "15",
        "nombre": "ARCABUCO",
        "latitud": 5.73526424,
        "longitud": -73.427931091,
        "spiga_id": "4",
        "departamento": {
            "codigo": "15",
            "nombre": "BOYACÁ",
            "latitud": 5.891672889,
            "longitud": -72.627880544
        }
    },
    {
        "codigo": "15087",
        "departamento_codigo": "15",
        "nombre": "BELÉN",
        "latitud": 6.005059265,
        "longitud": -72.893698873,
        "spiga_id": "7",
        "departamento": {
            "codigo": "15",
            "nombre": "BOYACÁ",
            "latitud": 5.891672889,
            "longitud": -72.627880544
        }
    },
    {
        "codigo": "15090",
        "departamento_codigo": "15",
        "nombre": "BERBEO",
        "latitud": 5.230936356,
        "longitud": -73.127319437,
        "spiga_id": "6",
        "departamento": {
            "codigo": "15",
            "nombre": "BOYACÁ",
            "latitud": 5.891672889,
            "longitud": -72.627880544
        }
    },
    {
        "codigo": "15092",
        "departamento_codigo": "15",
        "nombre": "BETÉITIVA",
        "latitud": 5.920858933,
        "longitud": -72.848578763,
        "spiga_id": "7",
        "departamento": {
            "codigo": "15",
            "nombre": "BOYACÁ",
            "latitud": 5.891672889,
            "longitud": -72.627880544
        }
    },
    {
        "codigo": "15097",
        "departamento_codigo": "15",
        "nombre": "BOAVITA",
        "latitud": 6.337515626,
        "longitud": -72.62021239,
        "spiga_id": "8",
        "departamento": {
            "codigo": "15",
            "nombre": "BOYACÁ",
            "latitud": 5.891672889,
            "longitud": -72.627880544
        }
    },
    {
        "codigo": "15104",
        "departamento_codigo": "15",
        "nombre": "BOYACÁ",
        "latitud": 5.439856216,
        "longitud": -73.381369938,
        "spiga_id": "9",
        "departamento": {
            "codigo": "15",
            "nombre": "BOYACÁ",
            "latitud": 5.891672889,
            "longitud": -72.627880544
        }
    },
    {
        "codigo": "15106",
        "departamento_codigo": "15",
        "nombre": "BRICEÑO",
        "latitud": 5.673229265,
        "longitud": -73.926607047,
        "spiga_id": null,
        "departamento": {
            "codigo": "15",
            "nombre": "BOYACÁ",
            "latitud": 5.891672889,
            "longitud": -72.627880544
        }
    },
    {
        "codigo": "15109",
        "departamento_codigo": "15",
        "nombre": "BUENAVISTA",
        "latitud": 5.489399419,
        "longitud": -73.950662546,
        "spiga_id": "2",
        "departamento": {
            "codigo": "15",
            "nombre": "BOYACÁ",
            "latitud": 5.891672889,
            "longitud": -72.627880544
        }
    },
    {
        "codigo": "15114",
        "departamento_codigo": "15",
        "nombre": "BUSBANZÁ",
        "latitud": 5.843483731,
        "longitud": -72.87574623,
        "spiga_id": "12",
        "departamento": {
            "codigo": "15",
            "nombre": "BOYACÁ",
            "latitud": 5.891672889,
            "longitud": -72.627880544
        }
    },
    {
        "codigo": "15131",
        "departamento_codigo": "15",
        "nombre": "CALDAS",
        "latitud": 5.575990669,
        "longitud": -73.880575077,
        "spiga_id": null,
        "departamento": {
            "codigo": "15",
            "nombre": "BOYACÁ",
            "latitud": 5.891672889,
            "longitud": -72.627880544
        }
    },
    {
        "codigo": "15135",
        "departamento_codigo": "15",
        "nombre": "CAMPOHERMOSO",
        "latitud": 5.006862536,
        "longitud": -73.144670302,
        "spiga_id": "14",
        "departamento": {
            "codigo": "15",
            "nombre": "BOYACÁ",
            "latitud": 5.891672889,
            "longitud": -72.627880544
        }
    },
    {
        "codigo": "15162",
        "departamento_codigo": "15",
        "nombre": "CERINZA",
        "latitud": 5.962013698,
        "longitud": -72.964472884,
        "spiga_id": "15",
        "departamento": {
            "codigo": "15",
            "nombre": "BOYACÁ",
            "latitud": 5.891672889,
            "longitud": -72.627880544
        }
    },
    {
        "codigo": "15172",
        "departamento_codigo": "15",
        "nombre": "CHINAVITA",
        "latitud": 5.202971639,
        "longitud": -73.340480736,
        "spiga_id": "16",
        "departamento": {
            "codigo": "15",
            "nombre": "BOYACÁ",
            "latitud": 5.891672889,
            "longitud": -72.627880544
        }
    },
    {
        "codigo": "15176",
        "departamento_codigo": "15",
        "nombre": "CHIQUINQUIRÁ",
        "latitud": 5.622488024,
        "longitud": -73.804245312,
        "spiga_id": "17",
        "departamento": {
            "codigo": "15",
            "nombre": "BOYACÁ",
            "latitud": 5.891672889,
            "longitud": -72.627880544
        }
    },
    {
        "codigo": "15180",
        "departamento_codigo": "15",
        "nombre": "CHISCAS",
        "latitud": 6.68911806,
        "longitud": -72.417956748,
        "spiga_id": "19",
        "departamento": {
            "codigo": "15",
            "nombre": "BOYACÁ",
            "latitud": 5.891672889,
            "longitud": -72.627880544
        }
    },
    {
        "codigo": "15183",
        "departamento_codigo": "15",
        "nombre": "CHITA",
        "latitud": 6.091468485,
        "longitud": -72.439031738,
        "spiga_id": "20",
        "departamento": {
            "codigo": "15",
            "nombre": "BOYACÁ",
            "latitud": 5.891672889,
            "longitud": -72.627880544
        }
    },
    {
        "codigo": "15185",
        "departamento_codigo": "15",
        "nombre": "CHITARAQUE",
        "latitud": 5.984394625,
        "longitud": -73.425823751,
        "spiga_id": "21",
        "departamento": {
            "codigo": "15",
            "nombre": "BOYACÁ",
            "latitud": 5.891672889,
            "longitud": -72.627880544
        }
    },
    {
        "codigo": "15187",
        "departamento_codigo": "15",
        "nombre": "CHIVATÁ",
        "latitud": 5.556830465,
        "longitud": -73.260617153,
        "spiga_id": "22",
        "departamento": {
            "codigo": "15",
            "nombre": "BOYACÁ",
            "latitud": 5.891672889,
            "longitud": -72.627880544
        }
    },
    {
        "codigo": "15189",
        "departamento_codigo": "15",
        "nombre": "CIÉNEGA",
        "latitud": 5.393059633,
        "longitud": -73.282057716,
        "spiga_id": "24",
        "departamento": {
            "codigo": "15",
            "nombre": "BOYACÁ",
            "latitud": 5.891672889,
            "longitud": -72.627880544
        }
    },
    {
        "codigo": "15204",
        "departamento_codigo": "15",
        "nombre": "CÓMBITA",
        "latitud": 5.667822366,
        "longitud": -73.321370491,
        "spiga_id": "25",
        "departamento": {
            "codigo": "15",
            "nombre": "BOYACÁ",
            "latitud": 5.891672889,
            "longitud": -72.627880544
        }
    },
    {
        "codigo": "15212",
        "departamento_codigo": "15",
        "nombre": "COPER",
        "latitud": 5.452461072,
        "longitud": -74.059965781,
        "spiga_id": "26",
        "departamento": {
            "codigo": "15",
            "nombre": "BOYACÁ",
            "latitud": 5.891672889,
            "longitud": -72.627880544
        }
    },
    {
        "codigo": "15215",
        "departamento_codigo": "15",
        "nombre": "CORRALES",
        "latitud": 5.82454582,
        "longitud": -72.845448448,
        "spiga_id": "27",
        "departamento": {
            "codigo": "15",
            "nombre": "BOYACÁ",
            "latitud": 5.891672889,
            "longitud": -72.627880544
        }
    },
    {
        "codigo": "15218",
        "departamento_codigo": "15",
        "nombre": "COVARACHÍA",
        "latitud": 6.5195214759999995,
        "longitud": -72.740204209,
        "spiga_id": "28",
        "departamento": {
            "codigo": "15",
            "nombre": "BOYACÁ",
            "latitud": 5.891672889,
            "longitud": -72.627880544
        }
    },
    {
        "codigo": "15223",
        "departamento_codigo": "15",
        "nombre": "CUBARÁ",
        "latitud": 6.886954878,
        "longitud": -72.181562849,
        "spiga_id": "29",
        "departamento": {
            "codigo": "15",
            "nombre": "BOYACÁ",
            "latitud": 5.891672889,
            "longitud": -72.627880544
        }
    },
    {
        "codigo": "15224",
        "departamento_codigo": "15",
        "nombre": "CUCAITA",
        "latitud": 5.527104109,
        "longitud": -73.445986459,
        "spiga_id": "30",
        "departamento": {
            "codigo": "15",
            "nombre": "BOYACÁ",
            "latitud": 5.891672889,
            "longitud": -72.627880544
        }
    },
    {
        "codigo": "15226",
        "departamento_codigo": "15",
        "nombre": "CUÍTIVA",
        "latitud": 5.58775449,
        "longitud": -72.939536863,
        "spiga_id": "31",
        "departamento": {
            "codigo": "15",
            "nombre": "BOYACÁ",
            "latitud": 5.891672889,
            "longitud": -72.627880544
        }
    },
    {
        "codigo": "15232",
        "departamento_codigo": "15",
        "nombre": "CHÍQUIZA",
        "latitud": 5.643075648,
        "longitud": -73.445623907,
        "spiga_id": "18",
        "departamento": {
            "codigo": "15",
            "nombre": "BOYACÁ",
            "latitud": 5.891672889,
            "longitud": -72.627880544
        }
    },
    {
        "codigo": "15236",
        "departamento_codigo": "15",
        "nombre": "CHIVOR",
        "latitud": 4.871181606,
        "longitud": -73.361423792,
        "spiga_id": "23",
        "departamento": {
            "codigo": "15",
            "nombre": "BOYACÁ",
            "latitud": 5.891672889,
            "longitud": -72.627880544
        }
    },
    {
        "codigo": "15238",
        "departamento_codigo": "15",
        "nombre": "DUITAMA",
        "latitud": 5.890602515,
        "longitud": -73.067094843,
        "spiga_id": "32",
        "departamento": {
            "codigo": "15",
            "nombre": "BOYACÁ",
            "latitud": 5.891672889,
            "longitud": -72.627880544
        }
    },
    {
        "codigo": "15244",
        "departamento_codigo": "15",
        "nombre": "EL COCUY",
        "latitud": 6.353363177,
        "longitud": -72.419237519,
        "spiga_id": "33",
        "departamento": {
            "codigo": "15",
            "nombre": "BOYACÁ",
            "latitud": 5.891672889,
            "longitud": -72.627880544
        }
    },
    {
        "codigo": "15248",
        "departamento_codigo": "15",
        "nombre": "EL ESPINO",
        "latitud": 6.508240556,
        "longitud": -72.480496247,
        "spiga_id": "34",
        "departamento": {
            "codigo": "15",
            "nombre": "BOYACÁ",
            "latitud": 5.891672889,
            "longitud": -72.627880544
        }
    },
    {
        "codigo": "15272",
        "departamento_codigo": "15",
        "nombre": "FIRAVITOBA",
        "latitud": 5.67367659,
        "longitud": -73.019833516,
        "spiga_id": "35",
        "departamento": {
            "codigo": "15",
            "nombre": "BOYACÁ",
            "latitud": 5.891672889,
            "longitud": -72.627880544
        }
    },
    {
        "codigo": "15276",
        "departamento_codigo": "15",
        "nombre": "FLORESTA",
        "latitud": 5.85899211,
        "longitud": -72.924998265,
        "spiga_id": "36",
        "departamento": {
            "codigo": "15",
            "nombre": "BOYACÁ",
            "latitud": 5.891672889,
            "longitud": -72.627880544
        }
    },
    {
        "codigo": "15293",
        "departamento_codigo": "15",
        "nombre": "GACHANTIVÁ",
        "latitud": 5.744105975,
        "longitud": -73.542655196,
        "spiga_id": "37",
        "departamento": {
            "codigo": "15",
            "nombre": "BOYACÁ",
            "latitud": 5.891672889,
            "longitud": -72.627880544
        }
    },
    {
        "codigo": "15296",
        "departamento_codigo": "15",
        "nombre": "GÁMEZA",
        "latitud": 5.799050256,
        "longitud": -72.729647651,
        "spiga_id": "38",
        "departamento": {
            "codigo": "15",
            "nombre": "BOYACÁ",
            "latitud": 5.891672889,
            "longitud": -72.627880544
        }
    },
    {
        "codigo": "15299",
        "departamento_codigo": "15",
        "nombre": "GARAGOA",
        "latitud": 5.089466651,
        "longitud": -73.314302722,
        "spiga_id": "39",
        "departamento": {
            "codigo": "15",
            "nombre": "BOYACÁ",
            "latitud": 5.891672889,
            "longitud": -72.627880544
        }
    },
    {
        "codigo": "15317",
        "departamento_codigo": "15",
        "nombre": "GUACAMAYAS",
        "latitud": 6.445438546,
        "longitud": -72.516353323,
        "spiga_id": "40",
        "departamento": {
            "codigo": "15",
            "nombre": "BOYACÁ",
            "latitud": 5.891672889,
            "longitud": -72.627880544
        }
    },
    {
        "codigo": "15322",
        "departamento_codigo": "15",
        "nombre": "GUATEQUE",
        "latitud": 5.01450831,
        "longitud": -73.488123516,
        "spiga_id": "41",
        "departamento": {
            "codigo": "15",
            "nombre": "BOYACÁ",
            "latitud": 5.891672889,
            "longitud": -72.627880544
        }
    },
    {
        "codigo": "15325",
        "departamento_codigo": "15",
        "nombre": "GUAYATÁ",
        "latitud": 4.931424341,
        "longitud": -73.496633724,
        "spiga_id": "42",
        "departamento": {
            "codigo": "15",
            "nombre": "BOYACÁ",
            "latitud": 5.891672889,
            "longitud": -72.627880544
        }
    },
    {
        "codigo": "15332",
        "departamento_codigo": "15",
        "nombre": "GÜICÁN DE LA SIERRA",
        "latitud": 6.566991765,
        "longitud": -72.255993335,
        "spiga_id": "43",
        "departamento": {
            "codigo": "15",
            "nombre": "BOYACÁ",
            "latitud": 5.891672889,
            "longitud": -72.627880544
        }
    },
    {
        "codigo": "15362",
        "departamento_codigo": "15",
        "nombre": "IZA",
        "latitud": 5.617366016,
        "longitud": -72.969865044,
        "spiga_id": "44",
        "departamento": {
            "codigo": "15",
            "nombre": "BOYACÁ",
            "latitud": 5.891672889,
            "longitud": -72.627880544
        }
    },
    {
        "codigo": "15367",
        "departamento_codigo": "15",
        "nombre": "JENESANO",
        "latitud": 5.38916272,
        "longitud": -73.400870207,
        "spiga_id": "45",
        "departamento": {
            "codigo": "15",
            "nombre": "BOYACÁ",
            "latitud": 5.891672889,
            "longitud": -72.627880544
        }
    },
    {
        "codigo": "15368",
        "departamento_codigo": "15",
        "nombre": "JERICÓ",
        "latitud": 6.155633662,
        "longitud": -72.585230926,
        "spiga_id": null,
        "departamento": {
            "codigo": "15",
            "nombre": "BOYACÁ",
            "latitud": 5.891672889,
            "longitud": -72.627880544
        }
    },
    {
        "codigo": "15377",
        "departamento_codigo": "15",
        "nombre": "LABRANZAGRANDE",
        "latitud": 5.541378132,
        "longitud": -72.590384601,
        "spiga_id": "50",
        "departamento": {
            "codigo": "15",
            "nombre": "BOYACÁ",
            "latitud": 5.891672889,
            "longitud": -72.627880544
        }
    },
    {
        "codigo": "15380",
        "departamento_codigo": "15",
        "nombre": "LA CAPILLA",
        "latitud": 5.113167102,
        "longitud": -73.459237077,
        "spiga_id": "47",
        "departamento": {
            "codigo": "15",
            "nombre": "BOYACÁ",
            "latitud": 5.891672889,
            "longitud": -72.627880544
        }
    },
    {
        "codigo": "15401",
        "departamento_codigo": "15",
        "nombre": "LA VICTORIA",
        "latitud": 5.507008121,
        "longitud": -74.241627269,
        "spiga_id": "5",
        "departamento": {
            "codigo": "15",
            "nombre": "BOYACÁ",
            "latitud": 5.891672889,
            "longitud": -72.627880544
        }
    },
    {
        "codigo": "15403",
        "departamento_codigo": "15",
        "nombre": "LA UVITA",
        "latitud": 6.265126191,
        "longitud": -72.555510848,
        "spiga_id": "48",
        "departamento": {
            "codigo": "15",
            "nombre": "BOYACÁ",
            "latitud": 5.891672889,
            "longitud": -72.627880544
        }
    },
    {
        "codigo": "15407",
        "departamento_codigo": "15",
        "nombre": "VILLA DE LEYVA",
        "latitud": 5.665762424,
        "longitud": -73.514948003,
        "spiga_id": "122",
        "departamento": {
            "codigo": "15",
            "nombre": "BOYACÁ",
            "latitud": 5.891672889,
            "longitud": -72.627880544
        }
    },
    {
        "codigo": "15425",
        "departamento_codigo": "15",
        "nombre": "MACANAL",
        "latitud": 4.980176495,
        "longitud": -73.294136946,
        "spiga_id": "51",
        "departamento": {
            "codigo": "15",
            "nombre": "BOYACÁ",
            "latitud": 5.891672889,
            "longitud": -72.627880544
        }
    },
    {
        "codigo": "15442",
        "departamento_codigo": "15",
        "nombre": "MARIPÍ",
        "latitud": 5.569810633,
        "longitud": -74.020031272,
        "spiga_id": "52",
        "departamento": {
            "codigo": "15",
            "nombre": "BOYACÁ",
            "latitud": 5.891672889,
            "longitud": -72.627880544
        }
    },
    {
        "codigo": "15455",
        "departamento_codigo": "15",
        "nombre": "MIRAFLORES",
        "latitud": 5.150953297,
        "longitud": -73.178967217,
        "spiga_id": "4",
        "departamento": {
            "codigo": "15",
            "nombre": "BOYACÁ",
            "latitud": 5.891672889,
            "longitud": -72.627880544
        }
    },
    {
        "codigo": "15464",
        "departamento_codigo": "15",
        "nombre": "MONGUA",
        "latitud": 5.710937981,
        "longitud": -72.634028752,
        "spiga_id": "54",
        "departamento": {
            "codigo": "15",
            "nombre": "BOYACÁ",
            "latitud": 5.891672889,
            "longitud": -72.627880544
        }
    },
    {
        "codigo": "15466",
        "departamento_codigo": "15",
        "nombre": "MONGUÍ",
        "latitud": 5.697352228,
        "longitud": -72.832986642,
        "spiga_id": "55",
        "departamento": {
            "codigo": "15",
            "nombre": "BOYACÁ",
            "latitud": 5.891672889,
            "longitud": -72.627880544
        }
    },
    {
        "codigo": "15469",
        "departamento_codigo": "15",
        "nombre": "MONIQUIRÁ",
        "latitud": 5.863370485,
        "longitud": -73.558525378,
        "spiga_id": "56",
        "departamento": {
            "codigo": "15",
            "nombre": "BOYACÁ",
            "latitud": 5.891672889,
            "longitud": -72.627880544
        }
    },
    {
        "codigo": "15476",
        "departamento_codigo": "15",
        "nombre": "MOTAVITA",
        "latitud": 5.606192449,
        "longitud": -73.377342665,
        "spiga_id": "57",
        "departamento": {
            "codigo": "15",
            "nombre": "BOYACÁ",
            "latitud": 5.891672889,
            "longitud": -72.627880544
        }
    },
    {
        "codigo": "15480",
        "departamento_codigo": "15",
        "nombre": "MUZO",
        "latitud": 5.539429272,
        "longitud": -74.111771391,
        "spiga_id": "58",
        "departamento": {
            "codigo": "15",
            "nombre": "BOYACÁ",
            "latitud": 5.891672889,
            "longitud": -72.627880544
        }
    },
    {
        "codigo": "15491",
        "departamento_codigo": "15",
        "nombre": "NOBSA",
        "latitud": 5.778759851,
        "longitud": -72.932683237,
        "spiga_id": "59",
        "departamento": {
            "codigo": "15",
            "nombre": "BOYACÁ",
            "latitud": 5.891672889,
            "longitud": -72.627880544
        }
    },
    {
        "codigo": "15494",
        "departamento_codigo": "15",
        "nombre": "NUEVO COLÓN",
        "latitud": 5.354701485,
        "longitud": -73.448734241,
        "spiga_id": "60",
        "departamento": {
            "codigo": "15",
            "nombre": "BOYACÁ",
            "latitud": 5.891672889,
            "longitud": -72.627880544
        }
    },
    {
        "codigo": "15500",
        "departamento_codigo": "15",
        "nombre": "OICATÁ",
        "latitud": 5.610787844,
        "longitud": -73.279919053,
        "spiga_id": "61",
        "departamento": {
            "codigo": "15",
            "nombre": "BOYACÁ",
            "latitud": 5.891672889,
            "longitud": -72.627880544
        }
    },
    {
        "codigo": "15507",
        "departamento_codigo": "15",
        "nombre": "OTANCHE",
        "latitud": 5.753787787,
        "longitud": -74.197194226,
        "spiga_id": "62",
        "departamento": {
            "codigo": "15",
            "nombre": "BOYACÁ",
            "latitud": 5.891672889,
            "longitud": -72.627880544
        }
    },
    {
        "codigo": "15511",
        "departamento_codigo": "15",
        "nombre": "PACHAVITA",
        "latitud": 5.148323877,
        "longitud": -73.399512192,
        "spiga_id": "63",
        "departamento": {
            "codigo": "15",
            "nombre": "BOYACÁ",
            "latitud": 5.891672889,
            "longitud": -72.627880544
        }
    },
    {
        "codigo": "15514",
        "departamento_codigo": "15",
        "nombre": "PÁEZ",
        "latitud": 5.095211035,
        "longitud": -73.004358626,
        "spiga_id": "23",
        "departamento": {
            "codigo": "15",
            "nombre": "BOYACÁ",
            "latitud": 5.891672889,
            "longitud": -72.627880544
        }
    },
    {
        "codigo": "15516",
        "departamento_codigo": "15",
        "nombre": "PAIPA",
        "latitud": 5.762027786,
        "longitud": -73.137774423,
        "spiga_id": "65",
        "departamento": {
            "codigo": "15",
            "nombre": "BOYACÁ",
            "latitud": 5.891672889,
            "longitud": -72.627880544
        }
    },
    {
        "codigo": "15518",
        "departamento_codigo": "15",
        "nombre": "PAJARITO",
        "latitud": 5.382328949,
        "longitud": -72.696726742,
        "spiga_id": "66",
        "departamento": {
            "codigo": "15",
            "nombre": "BOYACÁ",
            "latitud": 5.891672889,
            "longitud": -72.627880544
        }
    },
    {
        "codigo": "15522",
        "departamento_codigo": "15",
        "nombre": "PANQUEBA",
        "latitud": 6.443299758,
        "longitud": -72.461824312,
        "spiga_id": "67",
        "departamento": {
            "codigo": "15",
            "nombre": "BOYACÁ",
            "latitud": 5.891672889,
            "longitud": -72.627880544
        }
    },
    {
        "codigo": "15531",
        "departamento_codigo": "15",
        "nombre": "PAUNA",
        "latitud": 5.688801559,
        "longitud": -74.005041215,
        "spiga_id": "68",
        "departamento": {
            "codigo": "15",
            "nombre": "BOYACÁ",
            "latitud": 5.891672889,
            "longitud": -72.627880544
        }
    },
    {
        "codigo": "15533",
        "departamento_codigo": "15",
        "nombre": "PAYA",
        "latitud": 5.621242742,
        "longitud": -72.369290598,
        "spiga_id": "69",
        "departamento": {
            "codigo": "15",
            "nombre": "BOYACÁ",
            "latitud": 5.891672889,
            "longitud": -72.627880544
        }
    },
    {
        "codigo": "15537",
        "departamento_codigo": "15",
        "nombre": "PAZ DE RÍO",
        "latitud": 6.030008561,
        "longitud": -72.759880177,
        "spiga_id": "70",
        "departamento": {
            "codigo": "15",
            "nombre": "BOYACÁ",
            "latitud": 5.891672889,
            "longitud": -72.627880544
        }
    },
    {
        "codigo": "15542",
        "departamento_codigo": "15",
        "nombre": "PESCA",
        "latitud": 5.498483324,
        "longitud": -73.07837993,
        "spiga_id": "71",
        "departamento": {
            "codigo": "15",
            "nombre": "BOYACÁ",
            "latitud": 5.891672889,
            "longitud": -72.627880544
        }
    },